{
"type": "FeatureCollection",
                                                                                
"features": [
{ "type": "Feature", "properties": { "id": "2091", "name": "新闸路" }, "geometry": { "type": "Point", "coordinates": [ 121.4636467, 31.2405472 ] } },
{ "type": "Feature", "properties": { "id": "2090", "name": "黄陂南路" }, "geometry": { "type": "Point", "coordinates": [ 121.4693387, 31.2249483 ] } },
{ "type": "Feature", "properties": { "id": "2089", "name": "延长路" }, "geometry": { "type": "Point", "coordinates": [ 121.450992, 31.2732332 ] } },
{ "type": "Feature", "properties": { "id": "2088", "name": "陆家浜路" }, "geometry": { "type": "Point", "coordinates": [ 121.4814746, 31.2139173 ] } },
{ "type": "Feature", "properties": { "id": "2348", "name": "虹桥路" }, "geometry": { "type": "Point", "coordinates": [ 121.4164767, 31.1989568 ] } },
{ "type": "Feature", "properties": { "id": "2347", "name": "豫园" }, "geometry": { "type": "Point", "coordinates": [ 121.48303420000001, 31.2297039 ] } },
{ "type": "Feature", "properties": { "id": "2083", "name": "黄兴公园" }, "geometry": { "type": "Point", "coordinates": [ 121.5288453, 31.2978687 ] } },
{ "type": "Feature", "properties": { "id": "2082", "name": "曲阳路" }, "geometry": { "type": "Point", "coordinates": [ 121.485791, 31.2785073 ] } },
{ "type": "Feature", "properties": { "id": "2080", "name": "翔殷路" }, "geometry": { "type": "Point", "coordinates": [ 121.5276104, 31.3071134 ] } },
{ "type": "Feature", "properties": { "id": "2079", "name": "中兴路" }, "geometry": { "type": "Point", "coordinates": [ 121.46407670000001, 31.256373 ] } },
{ "type": "Feature", "properties": { "id": "2078", "name": "鞍山新村" }, "geometry": { "type": "Point", "coordinates": [ 121.50481240000001, 31.2749584 ] } },
{ "type": "Feature", "properties": { "id": "2077", "name": "黄兴路" }, "geometry": { "type": "Point", "coordinates": [ 121.52301660000001, 31.2803115 ] } },
{ "type": "Feature", "properties": { "id": "2076", "name": "上海马戏城" }, "geometry": { "type": "Point", "coordinates": [ 121.4475193, 31.2811743 ] } },
{ "type": "Feature", "properties": { "id": "2075", "name": "中山北路" }, "geometry": { "type": "Point", "coordinates": [ 121.4547965, 31.2613978 ] } },
{ "type": "Feature", "properties": { "id": "2074", "name": "人民广场" }, "geometry": { "type": "Point", "coordinates": [ 121.4712495, 31.2341801 ] } },
{ "type": "Feature", "properties": { "id": "2466", "name": "四川北路" }, "geometry": { "type": "Point", "coordinates": [ 121.479494, 31.2537048 ] } },
{ "type": "Feature", "properties": { "id": "2073", "name": "老西门" }, "geometry": { "type": "Point", "coordinates": [ 121.4785781, 31.2207313 ] } },
{ "type": "Feature", "properties": { "id": "2594", "name": "金沙江路" }, "geometry": { "type": "Point", "coordinates": [ 121.4072204, 31.2331479 ] } },
{ "type": "Feature", "properties": { "id": "2069", "name": "江浦路" }, "geometry": { "type": "Point", "coordinates": [ 121.5142018, 31.2769665 ] } },
{ "type": "Feature", "properties": { "id": "2068", "name": "耀华路" }, "geometry": { "type": "Point", "coordinates": [ 121.490195, 31.180644 ] } },
{ "type": "Feature", "properties": { "id": "2199", "name": "卢浦大桥 (暂未开通)" }, "geometry": { "type": "Point", "coordinates": [ 121.4776616, 31.198307 ] } },
{ "type": "Feature", "properties": { "id": "2198", "name": "长寿路 (在建)" }, "geometry": { "type": "Point", "coordinates": [ 121.433126, 31.2422682 ] } },
{ "type": "Feature", "properties": { "id": "2329", "name": "中华艺术宫" }, "geometry": { "type": "Point", "coordinates": [ 121.48924220000001, 31.1868468 ] } },
{ "type": "Feature", "properties": { "id": "2197", "name": "浦东 (陆家嘴)" }, "geometry": { "type": "Point", "coordinates": [ 121.4928591, 31.2402487 ] } },
{ "type": "Feature", "properties": { "id": "2457", "name": "四平路" }, "geometry": { "type": "Point", "coordinates": [ 121.4970345, 31.2767948 ] } },
{ "type": "Feature", "properties": { "id": "2060", "name": "延吉中路" }, "geometry": { "type": "Point", "coordinates": [ 121.530645, 31.290732 ] } },
{ "type": "Feature", "properties": { "id": "2186", "name": "东方体育中心" }, "geometry": { "type": "Point", "coordinates": [ 121.4758425, 31.1554325 ] } },
{ "type": "Feature", "properties": { "id": "2182", "name": "成山路" }, "geometry": { "type": "Point", "coordinates": [ 121.49162250000001, 31.1733518 ] } },
{ "type": "Feature", "properties": { "id": "2173", "name": "世博大道 (暂未开通)" }, "geometry": { "type": "Point", "coordinates": [ 121.479631, 31.1850648 ] } },
{ "type": "Feature", "properties": { "id": "2172", "name": "凌兆新村" }, "geometry": { "type": "Point", "coordinates": [ 121.4848026, 31.1430995 ] } },
{ "type": "Feature", "properties": { "id": "2037", "name": "老西门" }, "geometry": { "type": "Point", "coordinates": [ 121.4783802, 31.2207404 ] } },
{ "type": "Feature", "properties": { "id": "2036", "name": "南京东路" }, "geometry": { "type": "Point", "coordinates": [ 121.4805311, 31.2394134 ] } },
{ "type": "Feature", "properties": { "id": "2035", "name": "衡山路" }, "geometry": { "type": "Point", "coordinates": [ 121.4429031, 31.2077051 ] } },
{ "type": "Feature", "properties": { "id": "2034", "name": "徐家汇" }, "geometry": { "type": "Point", "coordinates": [ 121.4338887, 31.1950824 ] } },
{ "type": "Feature", "properties": { "id": "2033", "name": "上海体育馆" }, "geometry": { "type": "Point", "coordinates": [ 121.4317339, 31.1838651 ] } },
{ "type": "Feature", "properties": { "id": "2164", "name": "浦西 (外滩)" }, "geometry": { "type": "Point", "coordinates": [ 121.4860864, 31.2415603 ] } },
{ "type": "Feature", "properties": { "id": "2032", "name": "上海火车站" }, "geometry": { "type": "Point", "coordinates": [ 121.4512153, 31.2491072 ] } },
{ "type": "Feature", "properties": { "id": "2031", "name": "邮电新村" }, "geometry": { "type": "Point", "coordinates": [ 121.489829, 31.270398 ] } },
{ "type": "Feature", "properties": { "id": "2030", "name": "西藏南路" }, "geometry": { "type": "Point", "coordinates": [ 121.48514160000001, 31.2036493 ] } },
{ "type": "Feature", "properties": { "id": "2291", "name": "交通大学" }, "geometry": { "type": "Point", "coordinates": [ 121.4306649, 31.2041254 ] } },
{ "type": "Feature", "properties": { "id": "2421", "name": "海伦路" }, "geometry": { "type": "Point", "coordinates": [ 121.4842056, 31.2611688 ] } },
{ "type": "Feature", "properties": { "id": "2677", "name": "曲阜路" }, "geometry": { "type": "Point", "coordinates": [ 121.4672748, 31.2443341 ] } },
{ "type": "Feature", "properties": { "id": "2667", "name": "巨峰路" }, "geometry": { "type": "Point", "coordinates": [ 121.5851419, 31.2822905 ] } },
{ "type": "Feature", "properties": { "id": "2405", "name": "陕西南路" }, "geometry": { "type": "Point", "coordinates": [ 121.45401750000001, 31.2168228 ] } },
{ "type": "Feature", "properties": { "id": "2666", "name": "东陆路" }, "geometry": { "type": "Point", "coordinates": [ 121.5746455, 31.2846637 ] } },
{ "type": "Feature", "properties": { "id": "2404", "name": "龙溪路" }, "geometry": { "type": "Point", "coordinates": [ 121.37676930000001, 31.1969928 ] } },
{ "type": "Feature", "properties": { "id": "2273", "name": "新天地" }, "geometry": { "type": "Point", "coordinates": [ 121.4698176, 31.2180398 ] } },
{ "type": "Feature", "properties": { "id": "2665", "name": "杨高北路" }, "geometry": { "type": "Point", "coordinates": [ 121.598766, 31.2822811 ] } },
{ "type": "Feature", "properties": { "id": "2403", "name": "水城路" }, "geometry": { "type": "Point", "coordinates": [ 121.3876161, 31.2012235 ] } },
{ "type": "Feature", "properties": { "id": "2272", "name": "徐泾东" }, "geometry": { "type": "Point", "coordinates": [ 121.2971092, 31.1914812 ] } },
{ "type": "Feature", "properties": { "id": "2664", "name": "爱国路" }, "geometry": { "type": "Point", "coordinates": [ 121.5482851, 31.2819559 ] } },
{ "type": "Feature", "properties": { "id": "2402", "name": "宋园路" }, "geometry": { "type": "Point", "coordinates": [ 121.4078985, 31.1983218 ] } },
{ "type": "Feature", "properties": { "id": "2271", "name": "虹桥二号航站楼" }, "geometry": { "type": "Point", "coordinates": [ 121.322638, 31.1965896 ] } },
{ "type": "Feature", "properties": { "id": "2663", "name": "复兴岛" }, "geometry": { "type": "Point", "coordinates": [ 121.556972, 31.2829035 ] } },
{ "type": "Feature", "properties": { "id": "2401", "name": "伊梨路" }, "geometry": { "type": "Point", "coordinates": [ 121.3980124, 31.2010859 ] } },
{ "type": "Feature", "properties": { "id": "2270", "name": "隆德路" }, "geometry": { "type": "Point", "coordinates": [ 121.4190012, 31.2323503 ] } },
{ "type": "Feature", "properties": { "id": "2662", "name": "提篮桥" }, "geometry": { "type": "Point", "coordinates": [ 121.5022497, 31.2554931 ] } },
{ "type": "Feature", "properties": { "id": "2400", "name": "上海图书馆" }, "geometry": { "type": "Point", "coordinates": [ 121.4388249, 31.2094457 ] } },
{ "type": "Feature", "properties": { "id": "2661", "name": "国际客运中心" }, "geometry": { "type": "Point", "coordinates": [ 121.4939755, 31.2521208 ] } },
{ "type": "Feature", "properties": { "id": "2399", "name": "上海动物园" }, "geometry": { "type": "Point", "coordinates": [ 121.3634113, 31.1920777 ] } },
{ "type": "Feature", "properties": { "id": "2006", "name": "汉中路" }, "geometry": { "type": "Point", "coordinates": [ 121.4537151, 31.2437618 ] } },
{ "type": "Feature", "properties": { "id": "2660", "name": "天潼路" }, "geometry": { "type": "Point", "coordinates": [ 121.47803260000001, 31.2457203 ] } },
{ "type": "Feature", "properties": { "id": "2398", "name": "虹桥火车站" }, "geometry": { "type": "Point", "coordinates": [ 121.3161005, 31.1963569 ] } },
{ "type": "Feature", "properties": { "id": "2659", "name": "金京路" }, "geometry": { "type": "Point", "coordinates": [ 121.6107893, 31.2818459 ] } },
{ "type": "Feature", "properties": { "id": "2658", "name": "隆昌路" }, "geometry": { "type": "Point", "coordinates": [ 121.5407282, 31.2776103 ] } },
{ "type": "Feature", "properties": { "id": "2396", "name": "虹桥火车站" }, "geometry": { "type": "Point", "coordinates": [ 121.3161555, 31.195724 ] } },
{ "type": "Feature", "properties": { "id": "2657", "name": "宁国路" }, "geometry": { "type": "Point", "coordinates": [ 121.5282653, 31.2706789 ] } },
{ "type": "Feature", "properties": { "id": "2395", "name": "虹桥二号航站楼" }, "geometry": { "type": "Point", "coordinates": [ 121.3226464, 31.1959791 ] } },
{ "type": "Feature", "properties": { "id": "2656", "name": "江浦公园" }, "geometry": { "type": "Point", "coordinates": [ 121.5193398, 31.2665283 ] } },
{ "type": "Feature", "properties": { "id": "2655", "name": "大连路" }, "geometry": { "type": "Point", "coordinates": [ 121.5085675, 31.2599715 ] } },
{ "type": "Feature", "properties": { "id": "2131", "name": "漕宝路" }, "geometry": { "type": "Point", "coordinates": [ 121.4303267, 31.1702731 ] } },
{ "type": "Feature", "properties": { "id": "2262", "name": "芦恒路" }, "geometry": { "type": "Point", "coordinates": [ 121.4938452, 31.1202197 ] } },
{ "type": "Feature", "properties": { "id": "2654", "name": "金海路" }, "geometry": { "type": "Point", "coordinates": [ 121.6344234, 31.2652727 ] } },
{ "type": "Feature", "properties": { "id": "2130", "name": "陆家嘴" }, "geometry": { "type": "Point", "coordinates": [ 121.49812850000001, 31.2401562 ] } },
{ "type": "Feature", "properties": { "id": "2261", "name": "杨思" }, "geometry": { "type": "Point", "coordinates": [ 121.48903540000001, 31.1630048 ] } },
{ "type": "Feature", "properties": { "id": "2653", "name": "申江路" }, "geometry": { "type": "Point", "coordinates": [ 121.6226109, 31.2822916 ] } },
{ "type": "Feature", "properties": { "id": "2129", "name": "静安寺" }, "geometry": { "type": "Point", "coordinates": [ 121.4410623, 31.2248668 ] } },
{ "type": "Feature", "properties": { "id": "2128", "name": "陕西南路" }, "geometry": { "type": "Point", "coordinates": [ 121.4552565, 31.2189174 ] } },
{ "type": "Feature", "properties": { "id": "2127", "name": "南京西路" }, "geometry": { "type": "Point", "coordinates": [ 121.4560232, 31.2318255 ] } },
{ "type": "Feature", "properties": { "id": "2126", "name": "威宁路" }, "geometry": { "type": "Point", "coordinates": [ 121.383177, 31.2166274 ] } },
{ "type": "Feature", "properties": { "id": "2125", "name": "北新泾" }, "geometry": { "type": "Point", "coordinates": [ 121.36812, 31.218802 ] } },
{ "type": "Feature", "properties": { "id": "2124", "name": "世纪大道" }, "geometry": { "type": "Point", "coordinates": [ 121.5228979, 31.2306924 ] } },
{ "type": "Feature", "properties": { "id": "2123", "name": "东昌路" }, "geometry": { "type": "Point", "coordinates": [ 121.5112792, 31.2352711 ] } },
{ "type": "Feature", "properties": { "id": "2122", "name": "淞虹路" }, "geometry": { "type": "Point", "coordinates": [ 121.35580760000001, 31.2199749 ] } },
{ "type": "Feature", "properties": { "id": "2121", "name": "江苏路" }, "geometry": { "type": "Point", "coordinates": [ 121.4270122, 31.2214371 ] } },
{ "type": "Feature", "properties": { "id": "2120", "name": "常熟路" }, "geometry": { "type": "Point", "coordinates": [ 121.4464692, 31.2151851 ] } },
{ "type": "Feature", "properties": { "id": "2119", "name": "娄山关路" }, "geometry": { "type": "Point", "coordinates": [ 121.399198, 31.2131264 ] } },
{ "type": "Feature", "properties": { "id": "2118", "name": "大世界" }, "geometry": { "type": "Point", "coordinates": [ 121.474956, 31.2291572 ] } },
{ "type": "Feature", "properties": { "id": "2641", "name": "武宁路 (在建)" }, "geometry": { "type": "Point", "coordinates": [ 121.4260607, 31.236348 ] } },
{ "type": "Feature", "properties": { "id": "2117", "name": "人民广场" }, "geometry": { "type": "Point", "coordinates": [ 121.4686141, 31.2354033 ] } },
{ "type": "Feature", "properties": { "id": "2640", "name": "南京西路 (在建)" }, "geometry": { "type": "Point", "coordinates": [ 121.4579797, 31.2304735 ] } },
{ "type": "Feature", "properties": { "id": "2639", "name": "山海关路 (在建)" }, "geometry": { "type": "Point", "coordinates": [ 121.4578682, 31.2382599 ] } },
{ "type": "Feature", "properties": { "id": "2115", "name": "中山公园" }, "geometry": { "type": "Point", "coordinates": [ 121.4115624, 31.220064 ] } },
{ "type": "Feature", "properties": { "id": "2638", "name": "淮海中路 (在建)" }, "geometry": { "type": "Point", "coordinates": [ 121.4598675, 31.2218725 ] } },
{ "type": "Feature", "properties": { "id": "2114", "name": "上海科技馆" }, "geometry": { "type": "Point", "coordinates": [ 121.53866170000001, 31.2218914 ] } },
{ "type": "Feature", "properties": { "id": "2637", "name": "江宁路 (在建)" }, "geometry": { "type": "Point", "coordinates": [ 121.4400683, 31.2461706 ] } },
{ "type": "Feature", "properties": { "id": "2113", "name": "马当路" }, "geometry": { "type": "Point", "coordinates": [ 121.4719318, 31.2112876 ] } },
{ "type": "Feature", "properties": { "id": "2636", "name": "汉中路 (在建)" }, "geometry": { "type": "Point", "coordinates": [ 121.4544124, 31.2425599 ] } },
{ "type": "Feature", "properties": { "id": "2112", "name": "上海南站" }, "geometry": { "type": "Point", "coordinates": [ 121.42550540000001, 31.1565719 ] } },
{ "type": "Feature", "properties": { "id": "2111", "name": "世纪公园" }, "geometry": { "type": "Point", "coordinates": [ 121.5462327, 31.2127321 ] } },
{ "type": "Feature", "properties": { "id": "2110", "name": "西藏北路" }, "geometry": { "type": "Point", "coordinates": [ 121.4645981, 31.2655487 ] } },
{ "type": "Feature", "properties": { "id": "2109", "name": "虹口足球场" }, "geometry": { "type": "Point", "coordinates": [ 121.4747091, 31.2718466 ] } }
]
}
